City_ID,City,Country,Current Description,Max Temp,Lat,Lng,Hotel Name
0,Kizukuri,JP,overcast clouds,57.52,40.8061,140.3861,Goshogawara
6,Port Alfred,ZA,broken clouds,60.19,-33.5906,26.891,Port Alfred
10,Sitka,US,light rain,55.29,57.0531,-135.33,Sitka
11,Mataura,NZ,broken clouds,46.47,-46.1927,168.8643,Gore
15,Albany,US,clear sky,50.54,42.6001,-73.9662,Voorheesville
17,Bluff,NZ,overcast clouds,46.8,-46.6,168.3333,Bluff
19,Katsuura,JP,overcast clouds,55.42,35.1333,140.3,Katsuura
21,Zavetnoye,RU,clear sky,50.31,47.1194,43.8903,Zavetnoe
24,Rikitea,PF,broken clouds,69.58,-23.1203,-134.9692,Rikitea
26,New Norfolk,AU,overcast clouds,55.92,-42.7826,147.0587,New Norfolk
28,Requena,ES,scattered clouds,59.52,39.4883,-1.1004,Requena
33,Lagoa,PT,light rain,68.49,39.05,-27.9833,Santa Cruz da Graciosa
35,Jamestown,US,clear sky,53.24,42.097,-79.2353,Jamestown
36,Marquette,US,overcast clouds,58.44,46.5333,-87.6335,Ishpeming
38,Svetlyy,RU,clear sky,51.85,54.675,20.1347,Svetly
39,Castro,BR,overcast clouds,58.55,-24.7911,-50.0119,Castro
45,Esperance,AU,scattered clouds,60.64,-33.8667,121.9,Esperance
48,Lompoc,US,fog,58.51,34.6391,-120.4579,Lompoc
49,Klaksvik,FO,overcast clouds,47.32,62.2266,-6.589,Klaksvík
50,Yellowknife,CA,few clouds,41.56,62.456,-114.3525,Yellowknife
51,Marathon,US,overcast clouds,60.33,44.9,-89.7668,Krautkramer Brothers
52,Cidreira,BR,overcast clouds,63.61,-30.1811,-50.2056,CIDREIRA
54,Korla,CN,scattered clouds,61.0,41.7597,86.1469,Bayingolin Mongol Autonomous Prefecture
57,Colares,PT,few clouds,66.76,38.7992,-9.4469,Sintra
61,Keskin,TR,broken clouds,48.06,39.6731,33.6136,Keskin
64,Lima,PE,overcast clouds,57.9,-12.0432,-77.0282,Lima
65,Palmer,US,light rain,58.77,42.1584,-72.3287,Palmer
66,Mar Del Plata,AR,mist,56.95,-38.0023,-57.5575,Mar del Plata
68,Great Falls,US,clear sky,63.68,47.5002,-111.3008,Great Falls
71,Half Moon Bay,US,mist,67.62,37.4636,-122.4286,Half Moon Bay
72,Fortuna,US,broken clouds,58.35,40.5982,-124.1573,Fortuna
75,Geraldton,AU,overcast clouds,68.41,-28.7667,114.6,Geraldton
78,Port Lincoln,AU,scattered clouds,68.13,-34.7333,135.8667,Port Lincoln
83,Hermanus,ZA,scattered clouds,54.82,-34.4187,19.2345,Hermanus
84,Port Hardy,CA,few clouds,59.18,50.6996,-127.4199,Port Hardy
85,Puerto Ayora,EC,broken clouds,65.55,-0.7393,-90.3518,Puerto Ayora
87,Codrington,AU,overcast clouds,65.19,-38.2667,141.9667,Yambuk
90,Busselton,AU,overcast clouds,56.55,-33.65,115.3333,Busselton
91,Mehamn,NO,overcast clouds,42.71,71.0357,27.8492,Mehamn
92,Port Elizabeth,ZA,broken clouds,59.31,-33.918,25.5701,Gqeberha
93,Bethel,US,overcast clouds,60.89,41.3712,-73.414,Danbury
95,Sechura,PE,clear sky,61.61,-5.5569,-80.8222,Sechura
98,Avera,US,broken clouds,54.37,33.194,-82.5271,Avera
99,Yining,CN,overcast clouds,59.11,29.0361,114.5636,Jiujiang
101,Pisco,PE,smoke,59.05,-13.7,-76.2167,Pisco
103,Bayan,CN,clear sky,49.24,46.0833,127.4,Harbin
105,Kaoma,ZM,scattered clouds,63.19,-14.7833,24.8,Kaoma
106,Kodiak,US,overcast clouds,53.11,57.79,-152.4072,Kodiak
108,Vizinga,RU,overcast clouds,43.47,61.0749,50.1031,Vizinga
113,Saldanha,ZA,overcast clouds,46.45,-33.0117,17.9442,Saldanha
115,Bredasdorp,ZA,clear sky,47.89,-34.5322,20.0403,Bredasdorp
116,Cape Town,ZA,scattered clouds,61.38,-33.9258,18.4232,Cape Town
117,Chuy,UY,overcast clouds,58.68,-33.6971,-53.4616,Chuy
119,Floro,NO,broken clouds,51.76,61.5996,5.0328,Florø
123,Bellevue,US,mist,58.6,47.6104,-122.2007,Bellevue
125,Ancud,CL,broken clouds,45.39,-41.8697,-73.8203,Ancud
126,Neuquen,AR,clear sky,57.09,-38.9516,-68.0591,Neuquen
129,Pocatello,US,clear sky,64.67,42.8713,-112.4455,Pocatello
130,Berlevag,NO,overcast clouds,42.75,70.8578,29.0864,Berlevåg
131,Challans,FR,broken clouds,50.92,46.8436,-1.8749,Challans
132,Portland,US,few clouds,63.28,45.5234,-122.6762,Portland
134,Goderich,CA,overcast clouds,59.92,43.7501,-81.7165,Goderich
137,Andenes,NO,light intensity drizzle,44.92,69.3143,16.1194,Andenes
139,Hornepayne,CA,overcast clouds,50.94,49.2138,-84.7705,Hornepayne
140,Marshfield,US,overcast clouds,57.15,44.6689,-90.1718,Marshfield
141,Williams Lake,CA,few clouds,59.05,52.1415,-122.1445,Williams Lake
143,Hasaki,JP,light rain,55.8,35.7333,140.8333,Kamisu
144,Rio Grande,BR,overcast clouds,61.45,-32.035,-52.0986,Rio Grande
146,Lebu,CL,light rain,50.49,-37.6167,-73.65,Lebu
149,Seydisehir,TR,broken clouds,54.73,37.4193,31.8453,Seydişehir
152,Huarmey,PE,broken clouds,60.67,-10.0681,-78.1522,Cercado de Huarmey
161,Asau,RO,overcast clouds,43.72,46.4333,26.4,Comănești
162,Moose Factory,CA,overcast clouds,44.6,51.2585,-80.6094,Moosonee
164,Aleksandrov Gay,RU,overcast clouds,55.53,50.147,48.5704,Aleksandrov Gai
165,Torbay,CA,scattered clouds,48.27,47.6666,-52.7314,St. John's
167,West Odessa,US,broken clouds,67.41,31.8424,-102.4988,West Odessa
170,San Cristobal,VE,overcast clouds,69.98,7.7669,-72.225,San Cristobal
171,Stornoway,GB,broken clouds,50.04,58.2093,-6.3865,Stornoway
173,Hobart,AU,broken clouds,56.26,-42.8794,147.3294,Hobart
174,Rawson,AR,overcast clouds,62.65,-43.3002,-65.1023,Rawson
177,Kizema,RU,overcast clouds,46.09,61.113,44.8302,Kizema
178,Santa Vitoria Do Palmar,BR,overcast clouds,58.84,-33.5189,-53.3681,Santa Vitoria do Palmar
180,Matamoros,MX,broken clouds,68.11,25.5333,-103.25,Matamoros
181,Shimoda,JP,overcast clouds,57.56,34.6667,138.95,Shimoda
182,Hamilton,US,clear sky,58.77,39.1834,-84.5333,Cincinnati
186,Fokino,RU,scattered clouds,49.35,42.9836,132.4047,Fokino
188,Antofagasta,CL,clear sky,56.48,-23.65,-70.4,Antofagasta
189,Chioggia,IT,broken clouds,63.09,45.2256,12.2889,Venice
191,Hammerfest,NO,broken clouds,43.25,70.6634,23.6821,Hammerfest
192,Northam,GB,clear sky,56.61,51.0333,-4.2167,Bideford
193,Inta,RU,light rain,40.89,66.0317,60.1659,Inta
200,Backo Petrovo Selo,RS,overcast clouds,51.94,45.7081,20.0753,Bečej
201,Tongchuan,CN,overcast clouds,50.68,35.0806,109.0897,Tongchuan
203,Kaitangata,NZ,broken clouds,42.98,-46.2817,169.8464,Kaitangata
204,Bichura,RU,broken clouds,44.47,50.5881,107.6022,Bichura
205,Mandalgovi,MN,few clouds,46.26,45.7625,106.2708,Mandalgovi
207,Burnie,AU,overcast clouds,52.95,-41.0667,145.9167,Burnie
208,Kuito,AO,scattered clouds,60.39,-12.3833,16.9333,Kuito
210,Huangzhai,CN,overcast clouds,46.81,38.0751,112.6595,Taiyuan
211,Necochea,AR,overcast clouds,52.92,-38.5473,-58.7368,Necochea
213,Pinega,RU,overcast clouds,45.12,64.7001,43.3936,Pinega
214,Flinders,AU,light rain,62.38,-34.5833,150.8552,Wollongong
216,Izhma,RU,overcast clouds,42.31,65.0083,53.9113,Izhma
217,Arraial Do Cabo,BR,overcast clouds,68.92,-22.9661,-42.0278,Cabo Frio
218,Saint-Dizier,FR,overcast clouds,55.0,48.4167,5.0833,Joinville
220,Menongue,AO,broken clouds,62.26,-14.6585,17.691,Menongue
223,Hokitika,NZ,few clouds,47.71,-42.7167,170.9667,Hokitika
224,Bar Harbor,US,light rain,58.46,44.3876,-68.2039,Bar Harbor
225,Kosa,RU,overcast clouds,43.86,59.9445,54.9977,Kosa
227,Taltal,CL,clear sky,59.45,-25.4,-70.4833,Taltal
229,Jumla,NP,overcast clouds,55.78,29.2747,82.1838,Chandannath
230,Punta Alta,AR,overcast clouds,52.5,-38.8759,-62.0736,Punta Alta
234,Santa Elena,EC,broken clouds,67.75,-2.2333,-80.85,La Libertad
236,Troitsko-Pechorsk,RU,light rain,41.14,62.7084,56.1964,Troitsko-Pechorsk
237,Markivka,UA,scattered clouds,46.76,49.5229,39.5705,Markivka
238,Nyirlugos,HU,overcast clouds,43.99,47.6932,22.0448,Nyíradony
240,Uvalde,US,clear sky,68.99,29.3669,-99.767,Rock Bottom Ranch
242,Beyneu,KZ,broken clouds,61.45,45.3167,55.2,Beyneu
244,Kuremaa,EE,overcast clouds,53.28,58.7353,26.5383,Kuremaa
245,Mayskiy,RU,overcast clouds,42.21,47.6931,40.1025,Shakhty
246,Zhaodong,CN,clear sky,50.74,46.0833,125.9833,Suihua
247,Dodge City,US,clear sky,63.21,37.7528,-100.0171,Dodge City
250,Aksehir,TR,broken clouds,52.43,38.3575,31.4164,Akşehir
253,Grindavik,IS,broken clouds,41.47,63.8424,-22.4338,Grindavik
256,Te Anau,NZ,overcast clouds,42.35,-45.4167,167.7167,Te Anau
258,Monticello,US,broken clouds,60.58,45.3055,-93.7941,Monticello
259,Sitagroi,GR,broken clouds,52.79,41.1167,24.0333,Kalos Agros
262,Brigantine,US,overcast clouds,60.06,39.4101,-74.3646,Atlantic City
263,Beysehir,TR,broken clouds,53.85,37.6773,31.7246,Beyşehir
264,Nuevo Ideal,MX,broken clouds,55.06,24.8875,-105.0728,Nuevo Ideal
266,Kholtoson,RU,broken clouds,43.45,50.2981,103.3097,Zakamensk
267,Bafra,TR,overcast clouds,61.83,41.5678,35.9069,Bafra
269,Guerrero Negro,MX,clear sky,69.93,27.9769,-114.0611,Guerrero Negro
271,Saquarema,BR,overcast clouds,67.89,-22.92,-42.5103,Saquarema
273,Rabo De Peixe,PT,few clouds,68.27,37.8,-25.5833,Ribeira Grande
275,Vardo,NO,overcast clouds,46.38,70.3705,31.1107,Vardo
277,Provideniya,RU,light rain,42.15,64.3833,-173.3,Provideniya
279,Yuncheng,CN,overcast clouds,52.47,35.0231,110.9928,Yuncheng
280,Hualmay,PE,few clouds,60.06,-11.0964,-77.6139,Huacho
281,Abu Samrah,SY,clear sky,69.19,35.3029,37.1841,Suruj
284,Paris,FR,clear sky,54.1,48.8534,2.3488,Paris
292,Rota,ES,clear sky,66.33,36.6224,-6.3586,El Puerto de Santa María
298,Worthington,US,clear sky,53.73,40.0931,-83.018,Columbus
299,Sobolevo,RU,broken clouds,45.41,54.4299,31.8996,Sobolevo
300,Carnarvon,AU,clear sky,69.78,-24.8667,113.6333,Carnarvon
301,Viedma,AR,clear sky,55.99,-40.8135,-62.9967,Viedma
303,Roald,NO,light intensity shower rain,53.76,62.5833,6.1333,Roald
305,Richmond,US,few clouds,57.15,37.5538,-77.4603,Richmond
309,Boyabat,TR,overcast clouds,56.7,41.4689,34.7667,Boyabat
312,Kingaroy,AU,overcast clouds,69.35,-26.5333,151.8333,Kingaroy
317,Yinchuan,CN,clear sky,61.63,38.4681,106.2731,Yinchuan
318,Zhangye,CN,clear sky,57.4,38.9342,100.4517,Zhangye
319,Santa Maria,BR,light rain,59.94,-29.6842,-53.8069,Santa Maria
320,Bethal,ZA,clear sky,58.55,-26.4579,29.4655,Bethal
321,Kamenka,RU,overcast clouds,46.4,51.3223,42.7678,Kamenka
322,Jalu,LY,few clouds,68.58,29.0331,21.5482,Jalu
324,Atbasar,KZ,overcast clouds,55.29,51.8,68.3333,Atbasar
326,Nikolskoye,RU,overcast clouds,51.69,59.7035,30.7861,Saint Petersburg
328,Valentin Gomez Farias,MX,overcast clouds,58.15,28.2167,-106.5833,Santa Cruz de Mayo
329,Englewood,US,scattered clouds,58.57,39.6478,-104.9878,Denver
331,Nome,US,broken clouds,42.87,64.5011,-165.4064,Nome
333,Nemuro,JP,overcast clouds,52.88,43.3236,145.575,Nemuro
334,Mwanza,TZ,scattered clouds,68.05,-2.5167,32.9,Mwanza
336,Komsomolskiy,UZ,clear sky,63.32,40.4272,71.7189,Fergana
341,Dunedin,NZ,overcast clouds,42.75,-45.8742,170.5036,Dunedin
343,Saint Anthony,US,clear sky,60.71,45.0205,-93.218,Minneapolis
346,Estrela,BR,light rain,59.41,-28.0611,-50.9383,Estrela
347,Marchena,ES,clear sky,68.56,37.329,-5.4168,Marchena
351,La Ciotat,FR,clear sky,69.82,43.1748,5.6045,La Ciotat
353,Asheboro,US,clear sky,55.18,35.7079,-79.8136,Asheboro
354,Karlskrona,SE,broken clouds,57.65,56.1616,15.5866,Karlskrona
356,Ahipara,NZ,broken clouds,54.27,-35.1667,173.1667,Ahipara
357,Zhoucun,CN,overcast clouds,61.9,36.8167,117.8167,Binzhou
359,Pirapo,PY,overcast clouds,66.69,-26.85,-55.5333,Pirapó
362,Dieppe,FR,few clouds,52.2,49.75,1.1667,Les Grandes-Ventes
366,Piura,PE,clear sky,62.46,-5.2,-80.6333,Piura
368,Lata,PT,scattered clouds,55.08,40.1629,-8.3327,Coimbra
369,Shelburne,CA,overcast clouds,57.65,44.0787,-80.2041,Mono
370,Duma,CN,overcast clouds,48.96,34.7653,108.135,Xianyang
372,Durban,ZA,light rain,68.92,-29.8579,31.0292,Durban
373,Irbil,IQ,clear sky,66.02,36.1926,44.0106,Erbil
374,Xinyu,CN,overcast clouds,64.42,27.8043,114.9334,Xinyu
381,Camacupa,AO,broken clouds,63.73,-12.0167,17.4833,Camacupa
383,Barth,DE,broken clouds,58.05,54.3635,12.7249,Barth
385,Coquimbo,CL,clear sky,53.33,-29.9533,-71.3436,Coquimbo
386,Grants,US,light rain,50.23,35.1473,-107.8514,Grants
387,Thibodaux,US,scattered clouds,68.99,29.7958,-90.8229,Thibodaux
388,Cotacachi,EC,light rain,53.15,0.3,-78.2667,Cotacachi
390,Nacogdoches,US,clear sky,62.24,31.6002,-94.6335,Nacogdoches
392,Juybar,IR,clear sky,69.96,36.6412,52.9124,Juybar
393,Tucuman,AR,overcast clouds,62.6,-26.8241,-65.2226,San Miguel de Tucumán
394,Glens Falls,US,clear sky,48.85,43.3095,-73.644,Queensbury
395,Olafsvik,IS,overcast clouds,43.57,64.8945,-23.7142,Ólafsvík
400,Kamloops,CA,clear sky,60.75,50.6665,-120.3192,Kamloops
401,Mezen,RU,overcast clouds,44.65,65.8522,44.24,Mezen
402,Kruisfontein,ZA,few clouds,50.88,-34.0033,24.7314,Humansdorp
405,Hami,CN,clear sky,61.97,42.8,93.45,Hami
406,Toamasina,MG,broken clouds,68.0,-18.1667,49.3833,Toamasina
407,Puquio,PE,clear sky,45.73,-14.7,-74.1333,C.p Puquio
409,Moscow,RU,broken clouds,45.37,55.7522,37.6156,Moscow
410,Constitucion,CL,broken clouds,48.33,-35.3333,-72.4167,Constitución
413,Torbeyevo,RU,overcast clouds,43.56,54.0797,43.2473,Torbeyevo
414,Arklow,IE,few clouds,56.08,52.7931,-6.1414,Arklow
415,Kjollefjord,NO,scattered clouds,42.85,70.9457,27.3465,Kjøllefjord
416,Urusha,RU,scattered clouds,41.38,54.05,122.9,Urusha
417,Westport,US,broken clouds,62.15,41.1415,-73.3579,Norwalk
420,Pafos,CY,few clouds,62.38,34.7667,32.4167,Paphos
422,Severo-Kurilsk,RU,few clouds,46.8,50.6789,156.125,Severo-Kurilsk
424,Port-Cartier,CA,overcast clouds,48.42,50.0334,-66.8654,Port-Cartier
425,East London,ZA,broken clouds,63.64,-33.0153,27.9116,East London
428,Nizhniy Odes,RU,overcast clouds,40.86,63.6445,54.856,Nižni Odes
430,Tapalpa,MX,overcast clouds,55.13,19.95,-103.7667,Centro
437,Haines Junction,CA,broken clouds,55.35,60.7522,-137.5108,Haines Junction
440,Mount Gambier,AU,light rain,60.71,-37.8333,140.7667,Mount Gambier
441,Gasa,PS,few clouds,69.87,31.5,34.4667,Gaza
446,Khasan,RU,broken clouds,52.59,42.4308,130.6434,Yanbian Korean Autonomous Prefecture
450,Vila Franca Do Campo,PT,overcast clouds,69.19,37.7167,-25.4333,Vila Franca do Campo
452,Mgandu,TZ,overcast clouds,63.27,-5.95,34.1333,Mgandu
454,Yurla,RU,overcast clouds,44.04,59.3259,54.3223,Yurla
455,Petropavlovsk-Kamchatskiy,RU,broken clouds,46.99,53.0452,158.6483,Petropavlovsk-Kamchatskiy
456,Marystown,CA,overcast clouds,49.55,47.1666,-55.1483,Marystown
457,Takhtamygda,RU,broken clouds,41.76,54.1,123.5667,Takhtamygda
459,Mosquera,CO,broken clouds,53.69,4.7059,-74.2302,Mosquera
460,Tiznit,MA,broken clouds,69.42,29.5833,-9.5,Ouijjane
467,Faya,SA,scattered clouds,66.72,18.3851,42.4509,Faya
469,Ketchikan,US,overcast clouds,57.67,55.3422,-131.6461,Ketchikan
470,Albury,AU,overcast clouds,62.15,-36.0833,146.9167,Albury
472,Liverpool,GB,clear sky,53.71,53.4106,-2.9779,Liverpool
474,Linxia,CN,overcast clouds,54.36,35.6003,103.2064,Linxia
475,Havelock,US,clear sky,60.94,34.8791,-76.9013,Havelock
476,Jerome,US,clear sky,61.63,42.7241,-114.5186,Jerome
478,Xining,CN,overcast clouds,47.01,36.6167,101.7667,Xining
487,Dingli,MT,few clouds,64.81,35.8614,14.3822,Rabat
489,Catamarca,AR,overcast clouds,56.77,-28.4696,-65.7852,Catamarca
490,Banepa,NP,overcast clouds,64.72,27.6298,85.5214,Panauti
492,Belyy Yar,RU,clear sky,42.69,53.6039,91.3903,Belyi Yar
494,Sistranda,NO,light rain,48.16,63.7256,8.834,Midtsian
495,Awjilah,LY,broken clouds,69.69,29.1081,21.2869,Awjilah
496,Wellington,NZ,clear sky,51.06,-41.2866,174.7756,Wellington
501,Nola,IT,overcast clouds,65.62,40.922,14.5329,Nola
506,Kitob,UZ,clear sky,69.67,39.0843,66.8332,Shahrisabz
508,Maarianhamina,AX,overcast clouds,57.06,60.0973,19.9348,Mariehamn
512,Disna,BY,few clouds,45.09,55.568,28.1971,Dzisna
515,Sorland,NO,overcast clouds,48.06,67.667,12.6934,Sørland
516,College,US,scattered clouds,42.91,64.8569,-147.8028,Fairbanks
517,Broome,US,clear sky,52.63,42.2506,-75.833,Chenango Forks
518,Catalao,BR,broken clouds,68.54,-18.1658,-47.9464,Catalão
519,Bardiyah,LY,clear sky,69.96,31.7561,25.0865,Bardiyah
524,Saint-Augustin,CA,overcast clouds,50.99,51.226,-58.6502,Saint-Augustin
525,Malartic,CA,overcast clouds,59.11,48.1335,-78.1328,Malartic
526,Krasnyy Chikoy,RU,scattered clouds,45.1,50.3643,108.7512,Krasnyi Chikoi
528,Skibbereen,IE,scattered clouds,59.11,51.55,-9.2667,Skibbereen
530,Leh,IN,clear sky,48.65,34.1667,77.5833,Leh
531,Makat,KZ,overcast clouds,61.54,47.6469,53.3463,Makat
532,Gemena,CD,overcast clouds,69.19,3.25,19.7667,Gemena
533,Abbeville,FR,scattered clouds,57.16,50.1,1.8333,Abbeville
535,Vestmannaeyjar,IS,scattered clouds,44.69,63.4427,-20.2734,Vestmannaeyjar
536,Bose,IT,clear sky,60.22,45.4612,8.0137,Viverone
537,Virginia Beach,US,overcast clouds,62.62,36.8529,-75.978,Virginia Beach
538,Leshukonskoye,RU,overcast clouds,44.29,64.8989,45.7622,Leshukonskoe
541,Watsa,CD,overcast clouds,65.19,3.0372,29.5355,Watsa
542,Csany,HU,overcast clouds,46.74,47.6483,19.8297,Hatvan
545,Havoysund,NO,overcast clouds,43.03,70.9963,24.6622,Havøysund
546,Lucapa,AO,overcast clouds,67.08,-8.4192,20.7447,Lucapa
547,Kamaishi,JP,light rain,54.36,39.2667,141.8833,Kamaishi
551,Presidencia Roque Saenz Pena,AR,overcast clouds,66.07,-26.7852,-60.4388,Presidencia Roque Sáenz Peña
552,Tacoronte,ES,broken clouds,69.33,28.4769,-16.4102,Tacoronte
553,Olney,US,clear sky,58.01,39.1532,-77.0669,Aspen Hill
554,Treinta Y Tres,UY,overcast clouds,56.75,-33.2333,-54.3833,Treinta y Tres
555,Fort-Shevchenko,KZ,broken clouds,66.47,44.5086,50.263,Fort-Shevchenko
561,Menzelinsk,RU,light rain,47.41,55.7271,53.1026,Menzelinsk
562,Vila,PT,overcast clouds,54.48,42.0304,-8.1588,Castro Laboreiro
